stop_id,stop_code,stop_name,stop_desc,stop_lat,stop_lon,location_type,parent_station
4016324,,"CHATELET","FACE 16 QUAI DE GESVRES - 75104",48.857014888715405,2.347469838537296,0,
4016323,,"PONT NEUF - QUAI DU LOUVRE","FACE 22 QUAI DE LA MEGISSERIE - 75101",48.858057701289326,2.343560965223396,0,
4016322,,"LOUVRE - ETIENNE MARCEL","19 RUE DU LOUVRE - 75101",48.8645556407801,2.3425264691880536,0,
4016321,,"BOURSE","11 PLACE DE LA BOURSE - 75102",48.8686000083944,2.341069192464145,0,
4016320,,"RICHELIEU - 4 SEPTEMBRE","87 RUE DE RICHELIEU - 75102",48.87009195431089,2.339053002863979,0,
4016291,,"RUE DES MOINES","130 AVENUE DE CLICHY - 75117",48.89044694908414,2.320613679282316,0,
4016290,,"LEGENDRE","103 AVENUE DE CLICHY - 75117",48.88941360841949,2.322004140832718,0,
4016295,,"BOULAY","177 AVENUE DE CLICHY - 75117",48.89288171215441,2.315842525078344,0,
4016294,,"BOULAY","182 AVENUE DE CLICHY - 75117",48.89295368222563,2.316251384985718,0,
4016293,,"BROCHANT - CARDINET","141 AVENUE DE CLICHY - 75117",48.891587948844105,2.3181327811948154,0,
4016292,,"BROCHANT - CARDINET","168 AVENUE DE CLICHY - 75117",48.89185755313465,2.3180645348981526,0,
4016299,,"VICTOR HUGO - JEAN JAURES","31 BOULEVARD VICTOR HUGO - 92024",48.897724754228356,2.3107153020541866,0,
4016298,,"VICTOR HUGO - JEAN JAURES","14-16 BOULEVARD VICTOR HUGO - 92024",48.89751806839845,2.310797193032208,0,
4016280,,"SAINT-GEORGES","22 RUE NOTRE DAME DE LORETTE - 75109",48.87807269286103,2.3379223433423326,0,
4016282,,"PIGALLE - CHAPTAL","6-8 RUE FONTAINE - 75109",48.88075986391883,2.334897306526773,0,
4016281,,"SAINT-GEORGES","FACE 32 RUE NOTRE DAME DE LORETTE - 75109",48.878692816406044,2.3370366675298446,0,
4016284,,"BLANCHE","77 RUE BLANCHE - 75109",48.88298861040912,2.332035528074624,0,
4016283,,"BLANCHE","52 RUE DE LA FONTAINE - 75109",48.8832313018345,2.3329348921041246,0,
4016286,,"GANNERON","26-28 AVENUE DE CLICHY - 75118",48.885324939226564,2.3267205100468256,0,
4016285,,"PLACE DE CLICHY - CAULAINCOURT","130 BIS BOULEVARD DE CLICHY - 75118",48.88458818475614,2.329268993773359,0,
4016288,,"LA FOURCHE","69-71 AVENUE DE CLICHY - 75117",48.88778725739655,2.3248665614447788,0,
4016287,,"LA FOURCHE","70 AVENUE DE CLICHY - 75117",48.88783222281554,2.325152745158805,0,
4016289,,"LEGENDRE","100 AVENUE DE CLICHY - 75117",48.8893417810624,2.3225629388550773,0,
4016303,,"GENERAL LECLERC - VICTOR HUGO","93 BOULEVARD VICTOR HUGO - 92024",48.90070046224565,2.3155121338101297,0,
4016302,,"GENERAL LECLERC - VICTOR HUGO","34 BOULEVARD DU GENERAL LECLERC - 92024",48.901203740197225,2.3155119226470733,0,
4016301,,"CURTON","53 BOULEVARD VICTOR HUGO - 92024",48.8987676280021,2.312418665985478,0,
4016300,,"CURTON","53 BOULEVARD VICTOR HUGO - 92024",48.898632852301176,2.312568673210836,0,
4016273,,"LOUVRE - ETIENNE MARCEL","54 RUE DU LOUVRE - 75102",48.86565205893974,2.3433847968096146,0,
4016306,,"GENERAL LECLERC - VILLENEUVE-HOPITAL BEAUJON","80 BOULEVARD DU GENERAL LECLERC - 92024",48.90586686297892,2.3098113503006648,0,
4016272,,"COQUILLIERE - LES HALLES","15 RUE DU LOUVRE - 75101",48.86330642060076,2.341913358368381,0,
4016307,,"GENERAL LECLERC - VILLENEUVE-HOPITAL BEAUJON","71 BIS BOULEVARD DU GENERAL LECLERC - 92024",48.905121060238216,2.310357059527946,0,
4016304,,"REPUBLIQUE - FRANCOIS MITTERRAND","8 PLACE DE LA REPUBLIQUE - 92024",48.9033333644882,2.3138342457048426,0,
4016271,,"COQUILLIERE - LES HALLES","42 RUE DU LOUVRE - 75101",48.86336033166581,2.3422402882400415,0,
4766827,,"PORTE DE CLICHY","1 AVENUE DE LA PORTE DE CLICHY - 75117",48.8947234218669,2.3124478642572925,0,
4016270,,"LOUVRE - RIVOLI","FACE 6 AVENUE DE L'AMIRAL COLIGNY - 75101",48.86042151469406,2.340469262084462,0,
4016305,,"REPUBLIQUE - FRANCOIS MITTERRAND","53 BOULEVARD DU GENERAL LECLERC - 92024",48.90341402346017,2.3127163519315554,0,
4016308,,"HOPITAL BEAUJON","114 BOULEVARD DU GENERAL LECLERC - 92024",48.908858980420824,2.307423843582273,0,
4016309,,"HOPITAL BEAUJON","BOULEVARD DU GENERAL LECLERC - 92024",48.90826586918908,2.307560521898799,0,
4016279,,"CARREFOUR DE CHATEAUDUN","17 RUE DE CHATEAUDUN - 75109",48.87582585780375,2.339203078574824,0,
4016278,,"CARREFOUR DE CHATEAUDUN","66BIS-68 RUE DU FAUBOURG MONTMARTRE - 75109",48.87641002033888,2.339802613958686,0,
4016277,,"PROVENCE - FAUBOURG MONTMARTRE","32 RUE DU FAUBOURG MONTMARTRE - 75109",48.874244007171676,2.3421868361926466,0,
4016276,,"GRANDS BOULEVARDS","166-168 RUE MONTMARTRE - 75102",48.87053221363609,2.3428949185469965,0,
4016275,,"REAUMUR - MONTMARTRE","85 RUE MONTMARTRE - 75102",48.86788990126235,2.3435757843603318,0,
4016274,,"REAUMUR - MONTMARTRE","134-136 RUE MONTMARTRE - 75102",48.868303315676926,2.3436439506432523,0,
4016310,,"CLICHY - BERGES DE SEINE","0 ALL SANTO TIRSO - 92024",48.91112409937243,2.309004133870616,0,
4016312,,"CLAUDE DEBUSSY","19 AVENUE CLAUDE DEBUSSY - 92024",48.90992896434792,2.3096046868542586,0,
4016311,,"CLICHY - BERGES DE SEINE","0 ALL SANTO TIRSO - 92024",48.91112409937243,2.309004133870616,0,
4016314,,"PLACE DE CLICHY","6 PL DE CLICHY - 75109",48.883177013837376,2.3269798610834647,0,
4016313,,"GANNERON","31 AVENUE DE CLICHY - 75117",48.886052843118584,2.3260525979846745,0,
4016315,,"BLANCHE CALAIS","61-63 RUE BLANCHE - 75109",48.8817932857903,2.3315723399178645,0,
4016316,,"LA BRUYERE","47 RUE LA BRUYERE - 75109",48.87974422707983,2.3323765091616417,0,
4016317,,"SAINT-GEORGES - CHATEAUDUN","29 RUE SAINT GEORGES - 75109",48.87656283115288,2.3369685497066297,0,
4016318,,"PROVENCE - DROUOT","21-23 RUE DROUOT - 75109",48.874576588810406,2.340729011773776,0,
4016319,,"RICHELIEU - DROUOT - MAIRIE DU 9E","1 RUE DROUOT - 75109",48.87222193151079,2.3400476437111686,0,
4016268,,"RIVOLI - PONT NEUF","128 RUE DE RIVOLI - 75101",48.85988210624847,2.344283098140992,0,
4016267,,"CHATELET","108 RUE DE RIVOLI - 75101",48.85901014090902,2.346939022989699,0,
5150147,,"PORTE DE CLICHY","AVENUE DE LA PORTE DE CLICHY - 75117",48.894804487305976,2.3133337846585755,0,
4016269,,"LOUVRE - RIVOLI","16 RUE DU LOUVRE - 75101",48.861203399239315,2.3411231334321685,0,
4016266,,"HOTEL DE VILLE DE PARIS_4E__ARRONDISSEMENT","6 AVENUE VICTORIA - 75104",48.8571944061229,2.3498806593506445,0,
4016265,,"HOTEL DE VILLE DE PARIS_4E__ARRONDISSEMENT","6 AVENUE VICTORIA - 75104",48.8571944061229,2.3498806593506445,0,
