stop_id,stop_code,stop_name,stop_desc,stop_lat,stop_lon,location_type,parent_station
4024330,,"VOLTAIRE","37 BOULEVARD DE LA SEINE - 92050",48.900114030298596,2.1947777750056336,0,
4024331,,"LANNES","BOULEVARD DE LA SEINE - 92050",48.902081582947574,2.1942543460740294,0,
4024332,,"LANNES","FACE 88 BOULEVARD DE LA SEINE - 92050",48.90185677498932,2.194145910328192,0,
4024333,,"BOULEVARD DE LA SEINE","R KLEBER - 92050",48.90330277598378,2.1933785023252614,0,
4024339,,"SADI CARNOT - JOLIOT-CURIE","4 RUE DE LA COTE - 92050",48.88906914182084,2.202808155962186,0,
4024338,,"ROCHEGUDE","FACE 11-13 RUE SADI CARNOT - 92050",48.88957744025162,2.199331496857924,0,
4024335,,"BOULEVARD DE LA SEINE.","R KLEBER - 92050",48.90330279243396,2.1933921346786676,0,
4024334,,"BOULEVARD DE LA SEINE","FACE 116 BD DE LA SEINE - 92050",48.903608533761805,2.193541243083144,0,
4024337,,"NANTERRE - VILLE RER","FACE 58-60 BOULEVARD DU COUCHANT - 92050",48.894928935419784,2.195187305623287,0,
4024336,,"NANTERRE - VILLE RER - FAIDHERBE","3 BD DE LA SEINE - 92050",48.89605349252947,2.196165618179821,0,
4024321,,"PLAINCHAMP","BOULEVARD DU LEVANT - 92050",48.89076415653794,2.199682695448674,0,
4024322,,"RUE DES ANCIENNES MAIRIES","22 RUE DE STALINGRAD - 92050",48.893000092260564,2.198068457146964,0,
4024320,,"PLAINCHAMP","14 RUE DE STALINGRAD - 92050",48.89210313370966,2.1995837350962084,0,
4024329,,"VOLTAIRE","66 BOULEVARD DE LA SEINE - 92050",48.90005136480068,2.1949824204525146,0,
4024328,,"GENERAL LECLERC","6 BOULEVARD DE LA SEINE - 92050",48.897239356740116,2.1957943579139774,0,
4024327,,"GENERAL LECLERC","18 BOULEVARD DE LA SEINE - 92050",48.89750004786438,2.195848169783952,0,
4024325,,"MAURICE THOREZ","35 BIS RUE DE STALINGRAD - 92050",48.89369035872018,2.1965809475776066,0,
4024324,,"MAURICE THOREZ","FACE 43 RUE DE STALINGRAD - 92050",48.89409423242805,2.1961164321360105,0,
4024323,,"RUE DES ANCIENNES MAIRIES","23 RUE DE STALINGRAD - 92050",48.892811521137524,2.1982052599527306,0,
4024311,,"LIBERTE - PLAIDEURS","FACE 224 RUE DE SURESNES - 92050",48.88018870315814,2.2187603501529525,0,
4024310,,"LES PARECHAUX","RUE DES CHERCHEVETS - 92073",48.879346923618655,2.2218417709501512,0,
5150172,,"NANTERRE - VILLE RER","23 - 25 RUE HENRI MARTIN - 92050",48.89565690949968,2.195198940382233,0,
4024299,,"HOPITAL - PONT DE PUTEAUX","FACE 6 BOULEVARD RICHARD WALLACE - 92062",48.87866366555721,2.2419142564861145,0,
4024297,,"GODEFROY","30 QUAI DE DION BOUTON - 92062",48.880094491854784,2.244255345702841,0,
4024298,,"HOPITAL - PONT DE PUTEAUX","6 BOULEVARD RICHARD WALLACE - 92062",48.87877176305051,2.242227454203728,0,
4024295,,"SQUARE LEON BLUM","34-36 QUAI DE DION BOUTON - 92062",48.881821745766054,2.246459778300463,0,
4024296,,"SQUARE LEON BLUM","FACE 37 QUAI DE DION BOUTON - 92062",48.88180419562212,2.2470185050349207,0,
4024293,,"SOLJENITSYNE","QUAI DE DION BOUTON - 92062",48.883324123574575,2.248460335085293,0,
4024294,,"SOLJENITSYNE","FACE 55 QUAI DE DION BOUTON - 92062",48.88408018811139,2.249998928193167,0,
4024312,,"VERDUN","113 RUE DE SURESNES - 92050",48.88301777132864,2.2168460952034277,0,
4024291,,"RD 7 - PONT DE NEUILLY","PISTE SOUS LE PONT DE NEUILLY - 92062",48.88679588428236,2.252147587443668,0,
4024292,,"BELLINI","58 QUAI DE DION BOUTON - 92062",48.884961254395016,2.250433527024066,0,
4024313,,"VERDUN","FACE 129 RUE DE SURESNES - 92050",48.882191605067284,2.2175021025390933,0,
4024314,,"LES ALOUETTES","47 RUE DE SURESNES - 92050",48.88461430318606,2.2137216942469014,0,
4024290,,"PONT DE NEUILLY - RIVE GAUCHE","BRETELLE PONT DE NEUILLY - 92026",48.88719228663093,2.2535097512693967,0,
4024315,,"LES ALOUETTES","100 RUE DE SURESNES - 92050",48.88434501113073,2.2140357663787533,0,
4024316,,"CLEMENCEAU - SADI CARNOT","FACE 84 RUE SADI CARNOT - 92050",48.88695449882405,2.20855106925563,0,
4024317,,"CLEMENCEAU - SADI CARNOT","RUE DE SURESNES - 92050",48.88600327557959,2.2098753320519458,0,
4024318,,"SADI CARNOT - JOLIOT CURIE","FACE 52 RUE SADI-CARNOT - 92050",48.88863163240193,2.2053714557927226,0,
4024319,,"LES VENETS","19 RUE DES VENETS - 92050",48.88982481623273,2.203474009456126,0,
4024300,,"WALLACE - JEAN JAURES","60 BIS BOULEVARD RICHARD WALLACE - 92062",48.88060207123808,2.2384223287696106,0,
4024340,,"CARRIERS","74 RUE SADI CARNOT - 92050",48.887348351900705,2.2070918740511085,0,
4024343,,"PONT DE NEUILLY - RIVE GAUCHE","VOIE D'ACCES AU PONT DE NEUILLY - 92062",48.886589576197764,2.252706673716969,0,
4024341,,"LIBERTE - PLAIDEURS","2 RUE DE LA LIBERTE - 92073",48.879326265106386,2.2191029736105428,0,
4024342,,"BAS ROGERS","163 RUE JEAN JAURES - 92062",48.87985477346892,2.2368022331566495,0,
4024288,,"PONT DE NEUILLY-METRO","176 AVENUE CHARLES DE GAULLE - 92051",48.885309194492216,2.2597542578379075,0,
4024309,,"LYCEE PAUL LANGEVIN","2 RUE MAURICE PAYRET DORTAIL - 92073",48.877199336305935,2.2222280666278524,0,
4024289,,"PONT DE NEUILLY-METRO","176 AVENUE CHARLES DE GAULLE - 92051",48.885309194492216,2.2597542578379075,0,
4024303,,"GARE DE PUTEAUX","92 BOULEVARD RICHARD WALLACE - 92062",48.88227972996548,2.2349170275336028,0,
4024304,,"VICTOR HUGO","38 RUE DES BAS ROGERS - 92062",48.88002966619893,2.2312014981767256,0,
4024301,,"WALLACE - JEAN JAURES","45 BOULEVARD RICHARD WALLACE - 92062",48.880404351725026,2.238422705718465,0,
4024302,,"WALLACE - EUGENE EICHENBERGER","72 BOULEVARD RICHARD WALLACE - 92062",48.88143643740651,2.2366901551534535,0,
4024307,,"CAPITAINE FERBER","33 RUE VOLTAIRE - 92073",48.87896523498338,2.2268706111298675,0,
4024308,,"LYCEE PAUL LANGEVIN","RUE VOLTAIRE - 92073",48.878234244641455,2.2236564792468743,0,
4024305,,"VICTOR HUGO","29 RUE DES BAS ROGERS - 92062",48.87972417228882,2.2312838802690975,0,
4024306,,"CAPITAINE FERBER","FACE 33 RUE VOLTAIRE - 92073",48.87913604338843,2.226924751572093,0,
