stop_id,stop_code,stop_name,stop_desc,stop_lat,stop_lon,location_type,parent_station
3740548,,"PORTE D'AUTEUIL","PLACE PORTE D'AUTEUIL - 75116",48.84739026175083,2.2578771972845697,0,
3740547,,"PORTE D'AUTEUIL","PLACE PORTE D'AUTEUIL - 75116",48.847390152721914,2.2577137851809037,0,
3740509,,"CARREFOUR DE CHATEAUDUN","18 RUE DE CHATEAUDUN - 75109",48.876032563673256,2.339312087994025,0,
3740546,,"ALFRED CAPUS","85 BOULEVARD SUCHET - 75116",48.85031282049884,2.260351284060412,0,
3740545,,"ALFRED CAPUS","118 BOULEVARD SUCHET - 75116",48.850276623773084,2.2599700212197678,0,
3740549,,"GARE D'AUTEUIL","BOULEVARD SUCHET - 75116",48.848352867836674,2.25930560819641,0,
3740503,,"FAUBOURG SAINT-DENIS","2 RUE DE PARADIS - 75110",48.87452141519527,2.354857934680523,0,
3740504,,"HAUTEVILLE","44 RUE DE PARADIS - 75110",48.87547465274991,2.350321113612174,0,
3740501,,"GARE DE L'EST","79 BOULEVARD DE STRASBOURG - 75110",48.875904964117844,2.357937693487907,0,
3740502,,"GARE DE L'EST","9-11 RUE DU 8 MAI 1945 - 75110",48.87611168124885,2.357883275054754,0,
3740507,,"CADET","6 RUE LAMARTINE - 75109",48.87659858503417,2.344080984529833,0,
3740508,,"CADET","1 RUE DE CHATEAUDUN - 75109",48.87561905816125,2.342323218012916,0,
3740505,,"SQUARE MONTHOLON","18 RUE PAPILLON - 75109",48.876202910971784,2.34736461779748,0,
3740506,,"SQUARE MONTHOLON","90 RUE LA FAYETTE - 75109",48.87654445856856,2.3469968002225374,0,
3740540,,"RANELAGH","AVENUE INGRES - 75116",48.85813741035067,2.269410941458637,0,
3740543,,"RAFFET","BOULEVARD SUCHET - 75116",48.853468464049335,2.2619809194689444,0,
3740544,,"RAFFET","51 BOULEVARD SUCHET - 75116",48.8528303031503,2.2619001308795323,0,
3740541,,"PORTE DE PASSY","8-10 AVENUE INGRES - 75116",48.857326021592506,2.2651216094341193,0,
3740542,,"PORTE DE PASSY","35 BOULEVARD SUCHET - 75116",48.85702014290565,2.26461808683408,0,
3740535,,"SCHEFFER","20 RUE FRANKLIN - 75116",48.860212743960716,2.285848837785571,0,
3740534,,"SCHEFFER","12 AVENUE PAUL DOUMER - 75116",48.861218372452,2.2836684303554344,0,
3740537,,"PLACE POSSOZ","78 AV PAUL DOUMER - 75116",48.859633993882,2.278180844388691,0,
3740536,,"LA TOUR","56 AVENUE PAUL DOUMER - 75116",48.860129277354844,2.280182571795972,0,
3740539,,"LA MUETTE - BOULAINVILLIERS","11 CHAUSSEE DE LA MUETTE - 75116",48.85809485412893,2.2737286949180775,0,
3740538,,"LA MUETTE - BOULAINVILLIERS","6-8 CHAUSSEE DE LA MUETTE - 75116",48.858571991029,2.2752536202265197,0,
3740531,,"ALBERT DE MUN","43 AVENUE DU PRESIDENT WILSON - 75116",48.86379184179416,2.29100802489245,0,
3740532,,"TROCADERO","50 AVENUE DU PRESIDENT WILSON - 75116",48.863359257762404,2.28803884120187,0,
3740533,,"TROCADERO","FACE 48 AVENUE DU PRESIDENT WILSON - 75116",48.86303579060667,2.2882298532894727,0,
3740529,,"ALBERT DE MUN","32 AVENUE DU PRESIDENT WILSON - 75116",48.86407025913033,2.2905173822662883,0,
3740528,,"IENA","6 AVENUE PIERRE 1 ER DE SERBIE - 75116",48.86518637209752,2.295011754450006,0,
3740527,,"IENA","1 AVENUE PIERRE 1ER DE SERBIE - 75116",48.865276148868965,2.2947392336920487,0,
3740560,,"PLACE FRANZ LISZT","130 RUE LA FAYETTE - 75110",48.87794593694368,2.3521884586483655,0,
3740526,,"MARCEAU - PIERRE 1ER DE SERBIE - PLACE DE BEYROUTH","35 AVENUE PIERRE 1ER DE SERBIE - 75108",48.86771333366998,2.2995189159459297,0,
3740525,,"PIERRE CHARRON - FRANCOIS 1ER","48 RUE PIERRE CHARRON - 75108",48.8684599009924,2.3015209855762686,0,
3740524,,"PIERRE CHARRON - FRANCOIS 1ER","FACE 46 RUE PIERRE CHARRON - 75108",48.868738512749765,2.3015344168684257,0,
3740523,,"LA BOETIE - CHAMPS-ELYSEES","39 AVENUE DES CHAMPS ELYSEES - 75108",48.87027649546204,2.3055932182690912,0,
3740521,,"SAINT-PHILIPPE-DU-ROULE","64 BIS RUE LA BOETIE - 75108",48.87323478976855,2.311695174941694,0,
3740522,,"LA BOETIE - CHAMPS-ELYSEES","128 RUE LA BOETIE - 75108",48.870743847499625,2.3056338043485445,0,
3740520,,"LA BOETIE - MIROMESNIL","20 BIS RUE LA BOETIE - 75108",48.87411645667242,2.3163680133309223,0,
3740517,,"PASQUIER - ANJOU","94 BOULEVARD HAUSSMANN - 75108",48.87432421623703,2.3236299251277788,0,
3740555,,"MARCEAU - PIERRE 1ER DE SERBIE - PLACE DE BEYROUTH","24 AVENUE PIERRE 1ER DE SERBIE - 75116",48.86702101931276,2.298620312356525,0,
3740516,,"ROME - HAUSSMANN","74-76 BOULEVARD HAUSSMANN - 75108",48.87395603688644,2.3265729484538205,0,
3740554,,"PASSY - LA TOUR","9 RUE DE PASSY - 75116",48.85834254861258,2.283998295150484,0,
3740519,,"SAINT-AUGUSTIN","FACE 24 RUE DE LA PEPINIERE - 75108",48.874863096583965,2.3207958046274593,0,
3740553,,"JEAN BOLOGNE","51 RUE DE PASSY - 75116",48.85773866448645,2.2802669248647565,0,
3740518,,"SAINT-AUGUSTIN","108 BOULEVARD HAUSSMANN - 75108",48.87465646998024,2.3213953633663262,0,
3740552,,"PLACE DE PASSY","FACE 64 PLACE DE PASSY - 75116",48.857907981670735,2.2773247221170383,0,
3740513,,"TRINITE","PLACE D'ESTIENNE D'ORVES - 75109",48.87634698925498,2.331327681532409,0,
3740551,,"PASSY - BOULAINVILLIERS","95-97 RUE DE PASSY - 75116",48.858041846617304,2.275472181721968,0,
3740512,,"SAINT-GEORGES - CHATEAUDUN","31-33 RUE DE CHATEAUDUN - 75109",48.87602359181986,2.336505295756201,0,
3740550,,"LOUIS BOILLY","1 RUE LOUIS BOILLY - 75116",48.85899911682669,2.2675301527042517,0,
3740515,,"GARE SAINT-LAZARE - BUDAPEST","102 RUE SAINT-LAZARE - 75109",48.87571760094273,2.3271857160925067,0,
3740514,,"TRINITE","59 RUE DE CHATEAUDUN - 75109",48.876257176334846,2.3326902182697107,0,
3740510,,"CARREFOUR DE CHATEAUDUN","17 RUE DE CHATEAUDUN - 75109",48.87582585780375,2.339203078574824,0,
3740511,,"SAINT-GEORGES - CHATEAUDUN","36 RUE DE CHATEAUDUN - 75109",48.87622131126687,2.3363690403507302,0,
3740558,,"HAUSSMANN - MIROMESNIL","10-12 AVENUE PERCIER - 75108",48.87447561220089,2.314528521056996,0,
3740559,,"GARE SAINT-LAZARE","119-121 RUE SAINT LAZARE - 75108",48.87524105469884,2.3248559340121537,0,
3740556,,"ROND-POINT DES CHAMPS-ELYSEES - MATIGNON","FACE 3 AVENUE MATIGNON - 75108",48.869469015384865,2.3113019501850944,0,
3740557,,"MATIGNON - SAINT-HONORE","6 AV DELCASSE - 75108",48.87310957780222,2.314719861927881,0,
