stop_id,stop_code,stop_name,stop_desc,stop_lat,stop_lon,location_type,parent_station
4010730,,"FLANDRE","64 RUE DE L'OURCQ - 75119",48.892615791362296,2.378729451710416,0,
4010733,,"PORTE D'AUBERVILLIERS T3B","0 R D'AUBERVILLIERS - 75119",48.89842407174423,2.37048728825809,0,
4010731,,"CAMBRAI","70 RUE DE L'OURCQ - 75119",48.89357817917953,2.3764813015559594,0,
4010732,,"EVANGILE - AUBERVILLIERS","198 RUE D'AUBERVILLIERS - 75119",48.89508958584366,2.3713983744770486,0,
4010670,,"CRIMEE","FACE 90 RUE DE FLANDRE - 75119",48.89020802078957,2.3763833482577903,0,
4010671,,"CRIMEE","104 AV DE FLANDRE - 75119",48.890872677145964,2.377569582525219,0,
4010677,,"QUAI DE LA SEINE - STALINGRAD","4 AVENUE DE FLANDRE - 75119",48.884539150640755,2.3695108375358216,0,
4010676,,"QUAI DE LA SEINE - STALINGRAD","11 RUE DE FLANDRE - 75119",48.88450329345483,2.369170129386173,0,
4010679,,"LOUIS BLANC","217 RUE LA FAYETTE - 75110",48.88152054535606,2.3651211781154475,0,
4010678,,"CHAUDRON - SAINT MARTIN","239 RUE DU FAUBOURG SAINT-MARTIN - 75110",48.882436881178556,2.366634255521777,0,
4010673,,"RIQUET","64 AVENUE DE FLANDRE - 75119",48.8887076684606,2.3748013049984094,0,
4010672,,"RIQUET","FACE 60 RUE DE FLANDRE - 75119",48.888016042537274,2.3735469950935357,0,
4010675,,"MAROC - FLANDRE","28 AVENUE DE FLANDRE - 75119",48.885805906811996,2.3711060756537696,0,
4010674,,"MAROC - FLANDRE","31 RUE DE FLANDRE - 75119",48.88599466543109,2.3710108041528186,0,
4010720,,"VICTOR HUGO - JEAN JAURES","3 BOULEVARD JEAN JAURES - 92024",48.897014353385735,2.3089027796946073,0,
4010721,,"GANNERON","31 AVENUE DE CLICHY - 75117",48.886052843118584,2.3260525979846745,0,
4010722,,"PLACE DE CLICHY","6 PL DE CLICHY - 75109",48.883177013837376,2.3269798610834647,0,
4010723,,"BLANCHE","57 BOULEVARD DE CLICHY - 75109",48.883788451969494,2.331544866765384,0,
4010724,,"PIGALLE","FACE 20 BOULEVARD DE CLICHY - 75109",48.88208101123322,2.3379223950703425,0,
4010725,,"ROCHECHOUART - MARTYRS","63 BOULEVARD ROCHECHOUART - 75109",48.88182933710138,2.340061788322775,0,
4010726,,"ANVERS - SACRE COEUR","FACE 68 BOULEVARD ROCHECHOUART - 75109",48.88267396530856,2.34425893510232,0,
4010727,,"ROCHECHOUART - CLIGNANCOURT","21 BOULEVARD ROCHECHOUART - 75109",48.88305130198795,2.34616677318254,0,
4010728,,"BARBES - ROCHECHOUART","5 BOULEVARD DE ROCHECHOUART - 75109",48.88346447590784,2.3489331575610874,0,
4010729,,"LA FAYETTE - SAINT QUENTIN - GARE DU NORD","FACE 147 RUE LA FAYETTE - 75110",48.87905074959519,2.356521844707956,0,
4010668,,"CRIMEE - CURIAL","92 RUE DE L'OURCQ - 75119",48.89376772105596,2.3739326593460133,0,
4010667,,"CRIMEE - CURIAL","237 RUE DE CRIMEE - 75119",48.89397470728356,2.373005970992062,0,
4010666,,"EVANGILE - AUBERVILLIERS","193 RUE D'AUBERVILLIERS - 75118",48.89642892083493,2.3705132699148046,0,
4010665,,"PORTE D'AUBERVILLIERS T3B","215 RUE D'AUBERVILLIERS - 75118",48.89837024350875,2.3701464767345617,0,
4010664,,"PORTE D'AUBERVILLIERS - CITE CH. HERMITE","3 AVENUE DE LA PORTE D'AUBERVILLIERS - 75118",48.8991970700061,2.3701061076730867,0,
4010663,,"PORTE D'AUBERVILLIERS","R D'AUBERVILLIERS - 75119",48.89978999921138,2.3708971078870964,0,
4010662,,"PORTE D'AUBERVILLIERS","16 AVENUE DE LA PORTE D'AUBERVILLIERS - 75119",48.899978952854255,2.3700929718714936,0,
4010669,,"CRIMEE - ARCHEREAU","207 RUE DE CRIMEE - 75119",48.89177211247161,2.3753895869477755,0,
4010719,,"JAURES - BARBUSSE","51 BOULEVARD JEAN JAURES - 92024",48.90075212578295,2.3054519129764897,0,
4010718,,"DANIELLE CASANOVA","FACE 104 BOULEVARD JEAN JAURES - 92024",48.90479539967374,2.302177566473815,0,
4010717,,"GABRIEL PERI-METRO","PISTE GARE ROUTIERE - 92004",48.91585586683023,2.294302289078872,0,
4010691,,"ROCHECHOUART - MARTYRS","112 BOULEVARD DE ROCHECHOUART - 75118",48.882296669602475,2.3402389627194693,0,
4010716,,"GABRIEL PERI-METRO","PISTE GARE ROUTIERE - 92004",48.916323540007774,2.295283679264348,0,
4010690,,"ANVERS - SACRE COEUR","68-70 BOULEVARD DE ROCHECHOUART - 75118",48.88305144279706,2.3440273262563576,0,
4010715,,"PLACE VOLTAIRE","FACE 24 BOULEVARD VOLTAIRE - 92004",48.913025400714396,2.2955454150474894,0,
4010693,,"BLANCHE","80 BOULEVARD DE CLICHY - 75118",48.88371663447967,2.3335889584918315,0,
4010714,,"PLACE VOLTAIRE","22 BOULEVARD VOLTAIRE - 92004",48.91218097424025,2.296568698464727,0,
4010692,,"PIGALLE","22 BOULEVARD DE CLICHY - 75118",48.88258429865896,2.337431832166389,0,
4010713,,"LEON BLUM","136 BOULEVARD JEAN JAURES - 92024",48.906403689038,2.3008540579028622,0,
4010712,,"LEON BLUM","136 RUE MARTRE - 92024",48.90722193611381,2.302271357586615,0,
4010711,,"LANDY - MARTRE","102 BIS RUE MARTRE - 92024",48.90449961551857,2.304972468676297,0,
4010710,,"MAIRIE DE CLICHY-METRO","89 BOULEVARD JEAN JAURES - 92024",48.90259408337223,2.3039921380474033,0,
4010694,,"PLACE DE CLICHY - CAULAINCOURT","130 BIS BOULEVARD DE CLICHY - 75118",48.88458818475614,2.329268993773359,0,
4010695,,"GANNERON","26-28 AVENUE DE CLICHY - 75118",48.885324939226564,2.3267205100468256,0,
4010696,,"LA FOURCHE","70 AVENUE DE CLICHY - 75117",48.88783222281554,2.325152745158805,0,
4010697,,"LA FOURCHE","69-71 AVENUE DE CLICHY - 75117",48.88778725739655,2.3248665614447788,0,
4010698,,"LEGENDRE","100 AVENUE DE CLICHY - 75117",48.8893417810624,2.3225629388550773,0,
4010699,,"LEGENDRE","103 AVENUE DE CLICHY - 75117",48.88941360841949,2.322004140832718,0,
4010707,,"VICTOR HUGO - 8 MAI 1945","FACE 17 RUE DU 8 MAI 1945 - 92024",48.89846158223141,2.310196942773822,0,
4010706,,"PORTE DE CLICHY","1 AVENUE DE LA PORTE DE CLICHY - 75117",48.8947234218669,2.3124478642572925,0,
4010709,,"MAIRIE DE CLICHY-METRO","88 RUE MARTRE - 92024",48.90329564012262,2.306077441180394,0,
4010708,,"BARBUSSE - MARTRE","62 RUE MARTRE - 92024",48.90114819778661,2.30794629123773,0,
4010682,,"CHATEAU LANDON","190 RUE LA FAYETTE - 75110",48.88069423728366,2.362804240511246,0,
4010703,,"BOULAY","182 AVENUE DE CLICHY - 75117",48.89295368222563,2.316251384985718,0,
4010681,,"CHATEAU LANDON","191 RUE LA FAYETTE - 75110",48.88073033896296,2.362082056924824,0,
4010702,,"BROCHANT - CARDINET","141 AVENUE DE CLICHY - 75117",48.891587948844105,2.3181327811948154,0,
4010680,,"LOUIS BLANC","240 RUE DU FAUBOURG SAINT MARTIN - 75110",48.882023511474905,2.3664568730729765,0,
4010704,,"BOULAY","177 AVENUE DE CLICHY - 75117",48.89288171215441,2.315842525078344,0,
4010701,,"BROCHANT - CARDINET","168 AVENUE DE CLICHY - 75117",48.89185755313465,2.3180645348981526,0,
4010700,,"RUE DES MOINES","130 AVENUE DE CLICHY - 75117",48.89044694908414,2.320613679282316,0,
5150148,,"PORTE DE CLICHY","AVENUE DE LA PORTE DE CLICHY - 75117",48.894804487305976,2.3133337846585755,0,
4010685,,"GARE DU NORD - DUNKERQUE","PLACE NAPOLEON III - 75110",48.88005756021677,2.3549960773675407,0,
4010686,,"MAGENTA - MAUBEUGE - GARE DU NORD","140-142 BOULEVARD DE MAGENTA - 75110",48.881334194288584,2.351712503852361,0,
4010683,,"LA FAYETTE - DUNKERQUE","FACE 166 RUE LA FAYETTE - 75110",48.87959876119247,2.3577892797369544,0,
4010684,,"LA FAYETTE - DUNKERQUE","FACE 171 RUE LA FAYETTE - 75110",48.879508798192596,2.3583070366526497,0,
4010689,,"ROCHECHOUART - CLIGNANCOURT","44-46 BOULEVARD DE ROCHECHOUART - 75118",48.8834647199869,2.3460987084741514,0,
4010687,,"MAGENTA - MAUBEUGE - GARE DU NORD","129 BOULEVARD DE MAGENTA - 75110",48.88087584272046,2.351726002486145,0,
4010688,,"BARBES - ROCHECHOUART","168 BOULEVARD DE MAGENTA - 75110",48.88324867913404,2.3499415145297466,0,
