stop_id,stop_code,stop_name,stop_desc,stop_lat,stop_lon,location_type,parent_station
3681479,,"LE CANAL","45 BOULEVARD DE LA MARNE - 77479",48.86649265103152,2.642417531883925,0,
3681476,,"LA MALTOURNEE","R JEAN JAURES - 77468",48.854913121659834,2.6403336762724474,0,
3681475,,"LA MALTOURNEE","RUE JEAN JAURES - 77468",48.85479638969216,2.6402921349589046,0,
3681478,,"LES CANTINES","AV DE LA REPUBLIQUE - 77468",48.85765117162262,2.645062363100196,0,
3681477,,"LES CANTINES","22 ROUTE DE LAGNY - 77468",48.8596609516742,2.6463819086539355,0,
3681471,,"LA MOGOTTE","RUE DE LA MOGOTTE - 77468",48.851531362655635,2.637753568468366,0,
3681472,,"LA MOGOTTE","R DE LA MOGOTTE - 77468",48.851342867636546,2.6376571447027524,0,
3681473,,"LA FOSSE AUX LOUPS","RUE JEAN JAURES - 77468",48.85450725445994,2.6373486008770706,0,
3681474,,"LA FOSSE AUX LOUPS","R JEAN JAURES - 77468",48.85459760854207,2.637158448222115,0,
3681470,,"BEL AIR","103 RUE DE PARIS - 77468",48.84937386327594,2.6414861033950703,0,
3681489,,"RIVES DE MAUBUEE","FACE 28 AVENUE DE LINGENFELD - 77468",48.84526195661666,2.653594940647414,0,
3681488,,"SALVADOR ALLENDE","AVENUE DE LINGENFELD - 77468",48.84298279745342,2.6555826884396914,0,
3681487,,"CITES UNIES","AVENUE JEAN MOULIN - 77468",48.839094475647336,2.6576964831372134,0,
3681486,,"TORCY RER","AV DE LINGENFELD - 77468",48.8388587110045,2.655121686933947,0,
3681484,,"GARE DE VAIRES - TORCY","GARE ROUTIERE - 77479",48.87462353224703,2.6399584020460387,0,
3681485,,"ETANG DE CROISSY","AV JEAN MOULIN - 77146",48.83095009540868,2.6549234924374523,0,
3681500,,"MAISON DE RETRAITE","RUE DE PARIS - 77083",48.85258832961184,2.609322932107952,0,
3681482,,"REPUBLIQUE","4 BD DE LA MARNE - 77479",48.869290899856864,2.6411806353748193,0,
3681483,,"GARE DE VAIRES - TORCY","GARE ROUTIERE - 77479",48.87462353224703,2.6399584020460387,0,
3681502,,"POINTE DE CHAMPS","34 AVENUE DE CHELLES - 77083",48.85446624161854,2.59747009502811,0,
3681480,,"LE CANAL","44 BOULEVARD DE LA MARNE - 77479",48.866322520287966,2.642171321020683,0,
3681501,,"MAIRIE DE CHAMPS","FACE 8-6 RUE DE PARIS - 77083",48.85239050434027,2.601381973860583,0,
3681481,,"REPUBLIQUE","59-61 AV DE LORRAINE - 77479",48.87032474855916,2.641064081206506,0,
3681409,,"GARE D'EMERAINVILLE-PONTAULT-COMBAULT RER","R DE L'EST - 77373",48.806039430971204,2.617787416790813,0,
3681503,,"LES IRIS","91 AVENUE JEAN JAURES - 77083",48.85542846460346,2.5930620858796303,0,
3681408,,"GARE D'EMERAINVILLE-PONTAULT-COMBAULT RER","R DE L'EST - 77373",48.806039430971204,2.617787416790813,0,
3681506,,"PLACE CHURCHILL","AVENUE DES PRINCES - 93033",48.85848103964262,2.5817311296341425,0,
3681508,,"EGLISE DE GOURNAY","AVENUE PAUL DOUMER - 93033",48.863480491497555,2.576101580804232,0,
3681507,,"PLACE ROOSEVELT","AVENUE DE CHAMPS - 93033",48.861595619417926,2.579321189538517,0,
3681509,,"PONT DE GOURNAY","4 RUE DE GOURNAY - 77108",48.86627669725649,2.5755423069547474,0,
3681454,,"RIVES DE MAUBUEE","24 AVENUE DE LINGENFELD - 77468",48.845082316255095,2.653552993631835,0,
3681453,,"RIVES DE MAUBUEE","FACE 28 AVENUE DE LINGENFELD - 77468",48.84526195661666,2.653594940647414,0,
3681456,,"JACQUES PREVERT","AVENUE DE LINGENFELD - 77468",48.84694657702187,2.6521072695310983,0,
3681455,,"JACQUES PREVERT","AVENUE DE LINGENFELD - 77468",48.84706316156763,2.652203301096435,0,
3681458,,"RUE DES EPINETTES","AV JACQUES PREVERT - 77468",48.84866889183998,2.656720651347793,0,
3681457,,"RUE DES EPINETTES","AVENUE JACQUES PREVERT - 77468",48.84817571549336,2.6562954559929475,0,
3681459,,"LES BONDROLLES","AV DU PRESIDENT FRANCOIS MITTERRAND - 77468",48.851728798080345,2.6585235781166325,0,
3681515,,"CHELLES - GOURNAY RER","70 AVENUE DE LA RESISTANCE - 77108",48.874532919282075,2.581547949321578,0,
3681514,,"MARCHE - CHELLES - GOURNAY RER","54 BOULEVARD CHILPERIC - 77108",48.87477880331131,2.584342221256563,0,
3681513,,"CHELLES - GOURNAY RER","ALLEE DES TRANSPORTS - 77108",48.874339246385766,2.5839450063728906,0,
3681512,,"PARMENTIER - JULES FERRY","AV DU MARECHAL FOCH - 77108",48.87238142021725,2.5788674468620263,0,
3681511,,"AVENUE DES MARTYRS","49 AVENUE DU MARECHAL FOCH - 77108",48.87067862014969,2.576488959824313,0,
3681510,,"RUE DU PORT","1 AVENUE DU MARECHAL FOCH - 77108",48.86884142089588,2.5738784178712657,0,
3681450,,"CITES UNIES","AVENUE JEAN MOULIN - 77468",48.83924806864605,2.6573978872932438,0,
3681451,,"SALVADOR ALLENDE","AVENUE DE LINGENFELD - 77468",48.84298279745342,2.6555826884396914,0,
3681452,,"SALVADOR ALLENDE","AVENUE DE LINGENFELD - 77468",48.84220830914811,2.6561634428593592,0,
3681519,,"PONT DE GOURNAY","1 RUE DE GOURNAY - 77108",48.86620528888257,2.5752967704531002,0,
3681518,,"RUE DU PORT","RUE DE GOURNAY - 77108",48.86831057428451,2.574175706615011,0,
3681517,,"AVENUE DES MARTYRS","50 AVENUE DU MARECHAL FOCH - 77108",48.870957143989884,2.576531116758481,0,
3681516,,"PARMENTIER - JULES FERRY","32 AV DU MARECHAL FOCH - 77108",48.87259722530125,2.5788139550640428,0,
3681467,,"LES TILLEULS","82 RUE DE PARIS - 77468",48.85010804193541,2.646066225456977,0,
3681466,,"MAIRIE DE TORCY","FACE 50 RUE DE PARIS - 77468",48.850712449056154,2.6520756538555257,0,
3681465,,"MAIRIE DE TORCY","46 RUE DE PARIS - 77468",48.85088335370485,2.652022216317478,0,
3681464,,"FERME DU COUVENT","8 R DU COUVENT - 77468",48.85142395593467,2.6548990747322203,0,
3681469,,"BEL AIR","FACE 18 COURS DE L'ARCHE GUEDON - 77468",48.84961812216385,2.6408610910140897,0,
3681468,,"LES TILLEULS","71 TER RUE DE PARIS - 77468",48.849963254010994,2.6464466804422355,0,
3681526,,"POINTE DE CHAMPS","FACE 30 RUE DE CHELLES - 77083",48.854692679419884,2.5966676702967124,0,
3681525,,"LES IRIS","FACE 95 AVENUE JEAN JAURES - 77083",48.855221315585304,2.5932653613534637,0,
3681462,,"LE CLOS","AV DU PRESIDENT FRANCOIS MITTERRAND - 77468",48.85527517333553,2.6565570449891425,0,
3681520,,"EGLISE DE GOURNAY","AVENUE DU MARECHAL JOFFRE - 93033",48.86323884270116,2.5755964572289742,0,
3681463,,"FERME DU COUVENT","FACE 6 RUE DU COUVENT - 77468",48.851801971229484,2.65469710541561,0,
3681460,,"LES BONDROLLES","AV DU PRESIDENT FRANCOIS MITTERRAND - 77468",48.85153169969138,2.658290836294766,0,
3681522,,"PLACE CHURCHILL","6 AVENUE JEAN JAURES - 77083",48.858651100408146,2.582072448939666,0,
3681461,,"LE CLOS","AV DU PRESIDENT FRANCOIS MITTERRAND - 77468",48.85542039398311,2.656026762795703,0,
3681521,,"PLACE ROOSEVELT","AVENUE DE CHAMPS - 93033",48.86156019562919,2.579062216292892,0,
3681528,,"MAISON DE RETRAITE","RUE DE PARIS - 77083",48.85243498342096,2.609567271347769,0,
3681527,,"MAIRIE DE CHAMPS","10 RUE DE PARIS - 77083",48.85223720464594,2.6016127167657035,0,
3681529,,"LES QUATRE PAVES","COURS DE L'ARCHE GUEDON - 77337",48.851227642343254,2.6223762009154137,0,
3681430,,"LEON JOUHAUX","RUE LEON JOUHAUX - 77146",48.826477178713944,2.6399906423411275,0,
4146259,,"C.S.T.B. - MATTEOTTI","FACE 65 BIS AV JEAN JAURES - 77083",48.855865360078624,2.5904900646456364,0,
4146258,,"C.S.T.B. - MATTEOTTI","2 BOULEVARD DE LA REPUBLIQUE - 77083",48.85605652217107,2.589346915627523,0,
3681437,,"HENRI AUBRY","52 R D'EMERAINVILLE - 77146",48.82742014325998,2.643794043290817,0,
3681438,,"LIONS DE BEAUBOURG","FACE 22 R DU CHENIL - 77146",48.82661239336869,2.6468248226974707,0,
3681538,,"RUE DES EPINETTES","AV JACQUES PREVERT - 77468",48.84866889183998,2.656720651347793,0,
3681435,,"TABLE D'ORIENTATION","BD COURCERIN - 77146",48.82293744856299,2.6394255396623354,0,
3681539,,"JACQUES PREVERT","AVENUE DE LINGENFELD - 77468",48.84694657702187,2.6521072695310983,0,
3681436,,"HENRI AUBRY","R DU CHENIL - 77146",48.827328020939134,2.644664700535528,0,
3681433,,"LA MARE A BLONDEAU","RUE LEON JOUHAUX - 77146",48.82784856931678,2.6379159064951843,0,
3681434,,"TABLE D'ORIENTATION","R DES VIEILLES VIGNES - 77146",48.82297384806627,2.6392488036943167,0,
3681431,,"LEON JOUHAUX","RUE LEON JOUHAUX - 77146",48.826324528217434,2.639935302815908,0,
3681432,,"LA MARE A BLONDEAU","RUE LEON JOUHAUX - 77146",48.825645131503386,2.638488460077835,0,
3681532,,"CITE SCOLAIRE","0 COURS DE L'ARCHE GUEDON - 77468",48.850130645149385,2.633632666637883,0,
3681533,,"LA MOGOTTE","COURS DE L'ARCHE GUEDON - 77468",48.849623070716085,2.638913693080735,0,
3681530,,"JULES FERRY","192 COURS DE L'ARCHE GUEDON - 77337",48.85089483954968,2.6262148431505064,0,
3681531,,"LA REMISE AUX FRAISES","COURS DE L'ARCHE GUEDON - 77337",48.85048981271242,2.6301347406719437,0,
3681536,,"MAIRIE DE TORCY","FACE 50 RUE DE PARIS - 77468",48.850712449056154,2.6520756538555257,0,
3681537,,"LA MARE AUX MARCHAIS","1 RUE DE PARIS - 77468",48.850599319807685,2.657427091333727,0,
3681534,,"BEL AIR","103 RUE DE PARIS - 77468",48.84937386327594,2.6414861033950703,0,
3681439,,"LIONS DE BEAUBOURG","ALL DES PLATANES - 77146",48.826979395985305,2.647398734170388,0,
3681535,,"LES TILLEULS","71 TER RUE DE PARIS - 77468",48.849963254010994,2.6464466804422355,0,
3681540,,"RIVES DE MAUBUEE","24 AVENUE DE LINGENFELD - 77468",48.845082316255095,2.653552993631835,0,
3681441,,"LES PLATANES","5 ALL DES PLATANES - 77146",48.82970745648222,2.649007777522882,0,
3681440,,"LES PLATANES","ALL DES PLANTES - 77146",48.82986859057874,2.6492537830343816,0,
3681446,,"LYCEE JEAN MOULIN","AV JEAN MOULIN - 77468",48.8361672589088,2.6566709057246563,0,
3681447,,"TORCY RER","AV DE LINGENFELD - 77468",48.8388587110045,2.655121686933947,0,
3681448,,"TORCY RER","AV JEAN MOULIN - 77468",48.83906651295855,2.654714491802414,0,
3681449,,"CITES UNIES","AVENUE JEAN MOULIN - 77468",48.839094475647336,2.6576964831372134,0,
3681442,,"ETANG DE CROISSY","AV JEAN MOULIN - 77146",48.83075062398642,2.6555757158155155,0,
3681443,,"ANNE FRANCK","AV JEAN MOULIN - 77468",48.83508094259836,2.6595641207370613,0,
3681444,,"ANNE FRANCK","AV JEAN MOULIN - 77468",48.834443749834776,2.659219802649894,0,
3681445,,"LYCEE JEAN MOULIN","AV JEAN MOULIN - 77468",48.8363010847742,2.6570393314832073,0,
3681541,,"SALVADOR ALLENDE","AVENUE DE LINGENFELD - 77468",48.84220830914811,2.6561634428593592,0,
3681542,,"CITES UNIES","AVENUE JEAN MOULIN - 77468",48.83924806864605,2.6573978872932438,0,
3681543,,"TORCY RER","AV JEAN MOULIN - 77468",48.83906651295855,2.654714491802414,0,
3681497,,"LA REMISE AUX FRAISES","COURS DE L'ARCHE GUEDON - 77337",48.850679452087306,2.6297681081578985,0,
3681498,,"JULES FERRY","COURS DE L'ARCHE GUEDON - 77337",48.85104795592041,2.626079508796173,0,
3681499,,"LES QUATRE PAVES","COURS DE L'ARCHE GUEDON - 77337",48.85163425678612,2.6214659706761654,0,
3681411,,"LE PARC","RUE D'EMERY - 77169",48.8100583503771,2.621007009649533,0,
3681412,,"MAIRIE D'EMERAINVILLE","R D'EMERY - 77169",48.81150263987951,2.6221580063939895,0,
3681410,,"LE PARC","R D'EMERY - 77169",48.81003972569495,2.6212790673199966,0,
3681415,,"RUE D'EMERY","FACE 5 RUE D'EMERY - 77169",48.813805376080765,2.621381325410131,0,
3681416,,"BEAUBOURG","R DE BEAUBOURG - 77146",48.8169512309423,2.6287614410842224,0,
3681413,,"MAIRIE D'EMERAINVILLE","R D'EMERY - 77169",48.81154816455081,2.6219133055955757,0,
3681414,,"RUE D'EMERY","R D'EMERY - 77169",48.81427299543897,2.6212750123401,0,
3681490,,"JACQUES PREVERT","AVENUE DE LINGENFELD - 77468",48.84706316156763,2.652203301096435,0,
3681419,,"LES MINES","BD DE BEAUBOURG - 77146",48.819035688501295,2.632692925641074,0,
3681492,,"LA MARE AUX MARCHAIS","FACE 3-7 RUE DE PARIS - 77468",48.85076123947161,2.6573736160779675,0,
3681417,,"BEAUBOURG","BD DE BEAUBOURG - 77146",48.81710425442622,2.628667031677111,0,
3681491,,"RUE DES EPINETTES","AVENUE JACQUES PREVERT - 77468",48.84817571549336,2.6562954559929475,0,
3681418,,"LES MINES","R DE BEAUBOURG - 77146",48.81880177327236,2.632786866116781,0,
3681494,,"LES TILLEULS","82 RUE DE PARIS - 77468",48.85010804193541,2.646066225456977,0,
3681493,,"MAIRIE DE TORCY","46 RUE DE PARIS - 77468",48.85088335370485,2.652022216317478,0,
3681496,,"CITE SCOLAIRE","0 COURS DE L'ARCHE GUEDON - 77468",48.85029228306208,2.63368806437434,0,
3681495,,"LA MOGOTTE","9 COURS DE L'ARCHE GUEDON - 77468",48.84983959613489,2.6385881100782096,0,
3681420,,"AMBROISE CROIZAT","R AMBROISE CROIZAT - 77146",48.81676380860216,2.6354836017824104,0,
3681421,,"AMBROISE CROIZAT","R AMBROISE CROIZAT - 77146",48.81715099360573,2.6352000196378924,0,
3681422,,"COURS DU BUISSON","R DES VIEILLES VIGNES - 77146",48.815148234358205,2.638168965509928,0,
3681423,,"COURS DU BUISSON","R AMBROISE CROIZAT - 77146",48.81538349489591,2.637544297641163,0,
3681424,,"LES VIEILLES VIGNES","R DES VIEILLES VIGNES - 77146",48.818220781272316,2.642201767339982,0,
3681425,,"LES VIEILLES VIGNES","FACE 33 R DES VIEILLES VIGNES - 77146",48.81794338381309,2.6417237854940714,0,
3681426,,"CARAVELLE","R DES VIEILLES VIGNES - 77146",48.8215593879671,2.644086091916378,0,
3681427,,"CARAVELLE","R DES VIEILLES VIGNES - 77146",48.82182999830495,2.643706581525016,0,
3681428,,"CROISSY-BEAUBOURG - Z.I. PARIEST","ALLEE DU 1ER MAI - 77146",48.826493607422115,2.637050481519303,0,
3681429,,"CROISSY-BEAUBOURG - Z.I. PARIEST","ALLEE DU 1ER MAI - 77146",48.82604549537294,2.6365442421320906,0,
